{
  "version": "1.0.0",
  "timestamp": "2026-03-06T12:00:00Z",
  "locations": [
    {
      "id": "almaty",
      "name": "Almaty",
      "slug": "almaty",
      "country": "Kazakhstan",
      "region": "Almaty Region",
      "description": "Largest city in Kazakhstan, former capital, major cultural and business hub",
      "population": 1400000,
      "latitude": 43.2567,
      "longitude": 76.9286,
      "company_count": 85,
      "keywords": ["Almaty", "Алматы", "business", "culture"]
    },
    {
      "id": "astana",
      "name": "Astana (Nur-Sultan)",
      "slug": "astana",
      "country": "Kazakhstan",
      "region": "Akmola Region",
      "description": "Capital of Kazakhstan since 1997, modern city with rapid business growth",
      "population": 1400000,
      "latitude": 51.1694,
      "longitude": 71.4699,
      "company_count": 92,
      "keywords": ["Astana", "Nur-Sultan", "Астана", "capital"]
    },
    {
      "id": "shymkent",
      "name": "Shymkent",
      "slug": "shymkent",
      "country": "Kazakhstan",
      "region": "South Kazakhstan Region",
      "description": "Third largest city, important trade and cultural center",
      "population": 1300000,
      "latitude": 42.3041,
      "longitude": 69.5928,
      "company_count": 45,
      "keywords": ["Shymkent", "Чимкент", "business", "trade"]
    },
    {
      "id": "karaganda",
      "name": "Karaganda",
      "slug": "karaganda",
      "country": "Kazakhstan",
      "region": "Karaganda Region",
      "description": "Mining and industrial center in central Kazakhstan",
      "population": 630000,
      "latitude": 49.8047,
      "longitude": 72.7849,
      "company_count": 28,
      "keywords": ["Karaganda", "Карагanda", "mining"]
    },
    {
      "id": "aktobe",
      "name": "Aktobe",
      "slug": "aktobe",
      "country": "Kazakhstan",
      "region": "Aktobe Region",
      "description": "Oil and gas center in western Kazakhstan",
      "population": 440000,
      "latitude": 50.2847,
      "longitude": 57.1603,
      "company_count": 22,
      "keywords": ["Aktobe", "Актобе", "oil", "gas"]
    }
  ],
  "metadata": {
    "total_locations": 5,
    "countries": ["Kazakhstan"],
    "source": "katalog-ai",
    "last_updated": "2026-03-06",
    "coverage": "Central Asia"
  }
}
